{
  "checkpoints": [
    { "name": "Checkpoint Charlie", "lat": 52.5076, "lng": 13.3904, "note": "The most famous crossing. Allied/foreigners only." },
    { "name": "Bornholmer Straße", "lat": 52.5544, "lng": 13.3964, "note": "First crossing breached, night of Nov 9, 1989." },
    { "name": "Checkpoint Bravo (Dreilinden)", "lat": 52.4133, "lng": 13.1833, "note": "Main road crossing for Allied forces, Berlin to West Germany." },
    { "name": "Friedrichstraße Station", "lat": 52.5202, "lng": 13.3870, "note": "Train and S-Bahn checkpoint. The Tränenpalast (Palace of Tears)." },
    { "name": "Heinrich-Heine-Straße", "lat": 52.5076, "lng": 13.4125, "note": "West German citizens crossing point." },
    { "name": "Sonnenallee", "lat": 52.4736, "lng": 13.4639, "note": "Pedestrian and vehicle crossing in Neukölln." },
    { "name": "Oberbaumbrücke", "lat": 52.5022, "lng": 13.4453, "note": "Pedestrian-only crossing over the Spree." },
    { "name": "Invalidenstraße", "lat": 52.5300, "lng": 13.3786, "note": "Vehicle crossing near today's Hauptbahnhof." }
  ],
  "watchtowers": [
    { "name": "Erna-Berger-Straße tower", "lat": 52.5097, "lng": 13.3784, "note": "Round watchtower near Potsdamer Platz. Last surviving of its type." },
    { "name": "Kieler Eck command tower", "lat": 52.5341, "lng": 13.3531, "note": "Günter Litfin Memorial. Command tower with seasonal museum." },
    { "name": "Schlesischer Busch tower", "lat": 52.4956, "lng": 13.4536, "note": "Four-storey command tower in Treptow. Once supervised 18 other towers." }
  ],
  "tour_landmarks": [
    { "name": "Brandenburg Gate", "lat": 52.5163, "lng": 13.3777 },
    { "name": "Alexanderplatz", "lat": 52.5219, "lng": 13.4132 },
    { "name": "Hackescher Markt", "lat": 52.5225, "lng": 13.4022 },
    { "name": "Potsdamer Platz", "lat": 52.5096, "lng": 13.3759 }
  ]
}
